[
  {
    "id": "EVT-101",
    "type": "vehicle_movement",
    "title": "Vehicle movement near storage yard",
    "timestamp": "2026-04-16T02:52:00Z",
    "location": "North storage yard service lane",
    "lat": 12.9774,
    "lng": 77.6012,
    "severity": "high",
    "details": "White utility pickup entered restricted lane briefly, then stopped near container row C before exiting."
  },
  {
    "id": "EVT-102",
    "type": "badge_failure",
    "title": "Badge failures at Gate 3",
    "timestamp": "2026-04-16T03:10:00Z",
    "location": "Gate 3 access panel",
    "lat": 12.9765,
    "lng": 77.6005,
    "severity": "medium",
    "details": "Three failed badge attempts within 90 seconds using ID W-447; successful entry was not recorded."
  },
  {
    "id": "EVT-103",
    "type": "fence_alert",
    "title": "Fence alert at Gate 3",
    "timestamp": "2026-04-16T03:15:00Z",
    "location": "Gate 3 perimeter",
    "lat": 12.9761,
    "lng": 77.6001,
    "severity": "high",
    "details": "Perimeter section G3-F12 registered two short vibration spikes; wind conditions were moderate."
  },
  {
    "id": "EVT-104",
    "type": "drone_patrol",
    "title": "Drone patrol log near Gate 3",
    "timestamp": "2026-04-16T03:30:00Z",
    "location": "Gate 3 corridor",
    "lat": 12.9768,
    "lng": 77.6008,
    "severity": "medium",
    "details": "Scheduled patrol observed one moving heat signature near fence line and one stationary hotspot near parked equipment."
  },
  {
    "id": "EVT-105",
    "type": "noise",
    "title": "Random noise event",
    "timestamp": "2026-04-16T03:18:00Z",
    "location": "Comms tower sector",
    "lat": 12.9782,
    "lng": 77.602,
    "severity": "low",
    "details": "18-second radio interference burst on channel 4, possibly from maintenance handhelds."
  },
  {
    "id": "EVT-106",
    "type": "zone_activity",
    "title": "Late movement in Block C",
    "timestamp": "2026-04-16T03:34:00Z",
    "location": "Block C loading point",
    "lat": 12.9757,
    "lng": 77.5997,
    "severity": "medium",
    "details": "Motion sensor triggered after handover window; could be delayed contractor cleanup or route diversion."
  }
]
